[
  {
    "Name": "RSK Bedah Onkologi",
    "Address": "Jl. Galaxy Bumi Permai Blok A2 No.7,Surabaya",
    "Type": "K",
    "Class": "C",
    "District": "Kota Surabaya",
    "Province": "Jawa Timur",
    "Lat": -7.290786,
    "Long": 112.789378,
    "Hospital": "rs"
  },
  {
    "Name": "RSU &quot;Kanjuruhan&quot;Kepanjen",
    "Address": "Jl. Panji No. 100 Kepanjen, Malang",
    "Type": "A",
    "Class": "B",
    "District": "Malang",
    "Province": "Jawa Timur",
    "Lat": -8.140542,
    "Long": 112.57085,
    "Hospital": "rs"
  },
  {
    "Name": "RS Kristen Mojowarno",
    "Address": "Jl. Merdeka No.59 Mojowarno, Jombang",
    "Type": "A",
    "Class": "C",
    "District": "Jombang",
    "Province": "Jawa Timur",
    "Lat": -7.538658,
    "Long": 112.243683,
    "Hospital": "rs"
  },
  {
    "Name": "RS Panti Waluya Sawahan",
    "Address": "Jl. Nusakambangan No.56, Malang",
    "Type": "A",
    "Class": "C",
    "District": "Kota Malang",
    "Province": "Jawa Timur",
    "Lat": -7.988,
    "Long": 112.626442,
    "Hospital": "rs"
  },
  {
    "Name": "RS Darmo",
    "Address": "Jl. Raya Darmo 90,Surabaya",
    "Type": "A",
    "Class": "",
    "District": "Kota Surabaya",
    "Province": "Jawa Timur",
    "Lat": -7.287342,
    "Long": 112.739097,
    "Hospital": "rs"
  },
  {
    "Name": "RSUD Lawang",
    "Address": "Jl. RA Kartini 5, Lawang Kab. Malang",
    "Type": "A",
    "Class": "D",
    "District": "Malang",
    "Province": "Jawa Timur",
    "Lat": -7.839828,
    "Long": 112.676147,
    "Hospital": "rs"
  },
  {
    "Name": "RS Wijaya Kusuma",
    "Address": "Jl. A. Yani No.149 Lumajang",
    "Type": "A",
    "Class": "",
    "District": "Lumajang",
    "Province": "Jawa Timur",
    "Lat": -7.872264,
    "Long": 112.523419,
    "Hospital": "rs"
  },
  {
    "Name": "RSUD Genteng",
    "Address": "Jl. Hasanudin No.98,Genteng",
    "Type": "A",
    "Class": "C",
    "District": "Banyuwangi",
    "Province": "Jawa Timur",
    "Lat": -8.36405,
    "Long": 114.147772,
    "Hospital": "rs"
  },
  {
    "Name": "RSUD Sumberrejo",
    "Address": "Jl. Raya No.231 Sumberrejo,Bojonegoro",
    "Type": "A",
    "Class": "D",
    "District": "Bojonegoro",
    "Province": "Jawa Timur",
    "Lat": -7.142939,
    "Long": 111.898283,
    "Hospital": "rs"
  },
  {
    "Name": "RSUD Kab. Sampang",
    "Address": "Jl. Rajawali No. 10, Sampang",
    "Type": "A",
    "Class": "C",
    "District": "Sampang",
    "Province": "Jawa Timur",
    "Lat": -7.151122,
    "Long": 113.267686,
    "Hospital": "rs"
  },
  {
    "Name": "RSU Mardi Waluyo",
    "Address": "Jl. Kalimantan 113, Kota Blitar",
    "Type": "A",
    "Class": "",
    "District": "Kota Blitar",
    "Province": "Jawa Timur",
    "Lat": -8.072881,
    "Long": 112.166497,
    "Hospital": "rs"
  },
  {
    "Name": "RS Adi Husada Hapsari",
    "Address": "Jl. Kapasari No. 97-101 Surabaya",
    "Type": "A",
    "Class": "C",
    "District": "",
    "Province": "Jawa Timur",
    "Lat": -7.247047,
    "Long": 112.751025,
    "Hospital": "rs"
  },
  {
    "Name": "Premier Surabaya",
    "Address": "Jl. Ninden Intan Barat Sby",
    "Type": "A",
    "Class": "B",
    "District": "",
    "Province": "Jawa Timur",
    "Lat": -7.304794,
    "Long": 112.765089,
    "Hospital": "rs"
  },
  {
    "Name": "RSK Anak & P.Dalam Banyuwangi",
    "Address": "Jl. Basuki Rachmat Banyuwangi",
    "Type": "P",
    "Class": "C",
    "District": "Banyuwangi",
    "Province": "Jawa Timur",
    "Lat": -8.198561,
    "Long": 114.375061,
    "Hospital": "rs"
  },
  {
    "Name": "RSU Bala Keselamatan",
    "Address": "Jl. A.Yani 91 Turen , Kab.Malang",
    "Type": "A",
    "Class": "",
    "District": "Malang",
    "Province": "Jawa Timur",
    "Lat": -8.163433,
    "Long": 112.693947,
    "Hospital": "rs"
  },
  {
    "Name": "RS Budi Rahayu",
    "Address": "Jl. Jend.A Yani 18 Blitar",
    "Type": "A",
    "Class": "C",
    "District": "Kota Blitar",
    "Province": "Jawa Timur",
    "Lat": -8.099739,
    "Long": 112.172,
    "Hospital": "rs"
  },
  {
    "Name": "RSUD Ibnu Sina Kab. Gresik",
    "Address": "Jl. Dr. W Sudiro Husodo No.243 B, Gresik",
    "Type": "A",
    "Class": "B",
    "District": "Gresik",
    "Province": "Jawa Timur",
    "Lat": -7.161781,
    "Long": 112.651425,
    "Hospital": "rs"
  },
  {
    "Name": "RS Mardi Waluyo",
    "Address": "Jl. Raya Kalianget No.1, Kab Sumenep",
    "Type": "RSI Garam Kalianget",
    "Class": "RSU",
    "District": "Sumenep",
    "Province": "Jawa Timur",
    "Lat": -7.054886,
    "Long": 113.940383,
    "Hospital": "rs"
  },
  {
    "Name": "RS Mata Undaan",
    "Address": "Jl. Undaan Kulon 19 Surabaya",
    "Type": "Khusus Mata",
    "Class": "B",
    "District": "Kota Surabaya",
    "Province": "Jawa Timur",
    "Lat": -7.254439,
    "Long": 112.743,
    "Hospital": "rs"
  },
  {
    "Name": "RS Al-irsyad",
    "Address": "Jl. KH.Mansyur 210 Surabaya",
    "Type": "A",
    "Class": "C",
    "District": "Kota Surabaya",
    "Province": "Jawa Timur",
    "Lat": -7.227969,
    "Long": 112.741,
    "Hospital": "rs"
  },
  {
    "Name": "RSU Dr. Soedomo Trenggalek",
    "Address": "Jl. Dr Soetomo No. 2 Trenggalek",
    "Type": "A",
    "Class": "C",
    "District": "Trenggalek",
    "Province": "Jawa Timur",
    "Lat": -7.626433,
    "Long": 111.524125,
    "Hospital": "rs"
  },
  {
    "Name": "RS PHC",
    "Address": "Jl. Prapat Kurung selatan no 1",
    "Type": "RSU",
    "Class": "B",
    "District": "Kota Surabaya",
    "Province": "Jawa Timur",
    "Lat": -7.265278,
    "Long": 112.7425,
    "Hospital": "rs"
  },
  {
    "Name": "RSUD Kab. Jombang",
    "Address": "Jl. KHW Hasyim 52, Jombang",
    "Type": "A",
    "Class": "B",
    "District": "Jombang",
    "Province": "Jawa Timur",
    "Lat": -7.537539,
    "Long": 112.230817,
    "Hospital": "rs"
  },
  {
    "Name": "RSU Dr. R Koesma Tuban",
    "Address": "Jl. Dr W S Husodo No.800, Tuban",
    "Type": "A",
    "Class": "B",
    "District": "Tuban",
    "Province": "Jawa Timur",
    "Lat": -6.899583,
    "Long": 112.046169,
    "Hospital": "rs"
  },
  {
    "Name": "RSU An-Nisaa",
    "Address": "Jl. Suparyono Timur No.1,Bajang Talun-Blitar",
    "Type": "RSU",
    "Class": "D",
    "District": "Kota Blitar",
    "Province": "Jawa Timur",
    "Lat": -8.090083,
    "Long": 112.288258,
    "Hospital": "rs"
  },
  {
    "Name": "RSUD Bhakti Dharma Husada",
    "Address": "Jl. Raya Kendung No.115-117, Surabaya",
    "Type": "A",
    "Class": "C",
    "District": "Kota Surabaya",
    "Province": "Jawa Timur",
    "Lat": -7.253378,
    "Long": 112.634922,
    "Hospital": "rs"
  },
  {
    "Name": "RS PT Semen Gresik",
    "Address": "Jl. R A Kartini No. 280 Gresik",
    "Type": "A",
    "Class": "C",
    "District": "Gresik",
    "Province": "Jawa Timur",
    "Lat": -7.165831,
    "Long": 112.642,
    "Hospital": "rs"
  },
  {
    "Name": "RSK Bedah Dina L",
    "Address": "Jl. Hayam Wuruk No.90,Kediri",
    "Type": "K",
    "Class": "",
    "District": "Kota Kediri",
    "Province": "Jawa Timur",
    "Lat": -7.816894,
    "Long": 112.011397,
    "Hospital": "rs"
  },
  {
    "Name": "RSU Haji Surabaya",
    "Address": "Jl. Manyar Kertoadi Surabaya",
    "Type": "A",
    "Class": "B",
    "District": "Surabaya",
    "Province": "Jawa Timur",
    "Lat": -7.282331,
    "Long": 112.779583,
    "Hospital": "rs"
  },
  {
    "Name": "RSUD kab, Pacitan",
    "Address": "Jl. Jen A Yani No. 51 Pacitan",
    "Type": "A",
    "Class": "C",
    "District": "Pacitan",
    "Province": "Jawa Timur",
    "Lat": -8.20125,
    "Long": 111.102042,
    "Hospital": "rs"
  },
  {
    "Name": "RSU Blambangan",
    "Address": "Jl. Istiqlah No. 49 Banyuwangi",
    "Type": "A",
    "Class": "C",
    "District": "Banyuwangi",
    "Province": "Jawa Timur",
    "Lat": -8.236286,
    "Long": 114.358239,
    "Hospital": "rs"
  },
  {
    "Name": "RSUD dr. Abdoer Rahem Situbondo",
    "Address": "Jl. Anggrek No. 68 Situbondo",
    "Type": "A",
    "Class": "C",
    "District": "Situbondo",
    "Province": "Jawa Timur",
    "Lat": -7.702981,
    "Long": 114.014769,
    "Hospital": "rs"
  },
  {
    "Name": "RSU Dr. R. Sosodoro Djatikoesoemo",
    "Address": "Jl. Dr Wahidin No.40, Bojonegoro",
    "Type": "A",
    "Class": "B",
    "District": "Bojonegoro",
    "Province": "Jawa Timur",
    "Lat": -7.142939,
    "Long": 111.898283,
    "Hospital": "rs"
  },
  {
    "Name": "RS Anwar Medika",
    "Address": "Dsn. Semawut RT.10/RW.04, Ds Balongbendo Kec.Balongbendo, Sidoarjo",
    "Type": "A",
    "Class": "",
    "District": "Jatim",
    "Province": "Jawa Timur",
    "Lat": -7.412169,
    "Long": 112.561086,
    "Hospital": "rs"
  },
  {
    "Name": "RS Bedah Dan Kandungan Unipdu Medika",
    "Address": "Jl. Raya Peterongan Jogoroto Km.0.5, Jombang",
    "Type": "A",
    "Class": "",
    "District": "Jatim",
    "Province": "Jawa Timur",
    "Lat": -7.537539,
    "Long": 112.230817,
    "Hospital": "rs"
  },
  {
    "Name": "RS Islam Surabaya Jemursari",
    "Address": "Jl. Jemursai 51 - 57, Surabaya",
    "Type": "A",
    "Class": "B",
    "District": "Surabaya",
    "Province": "Jawa Timur",
    "Lat": -7.322719,
    "Long": 112.74,
    "Hospital": "rs"
  },
  {
    "Name": "RS Aisyiah Ponorogo",
    "Address": "Jl. Dr Sutomo 18 - 24, Ponorogo",
    "Type": "A",
    "Class": "",
    "District": "Ponorogo",
    "Province": "Jawa Timur",
    "Lat": -7.872197,
    "Long": 111.461308,
    "Hospital": "rs"
  },
  {
    "Name": "RS PTPN X Jember",
    "Address": "Jl. Bedadung No.2 Jember",
    "Type": "A",
    "Class": "",
    "District": "Jember",
    "Province": "Jawa Timur",
    "Lat": -8.2603,
    "Long": 113.670411,
    "Hospital": "rs"
  },
  {
    "Name": "RS Syuhada Haji",
    "Address": "Jl. Mojo No.12 Pakunden-Blitar",
    "Type": "A",
    "Class": "-",
    "District": "Kota Blitar",
    "Province": "Jawa Timur",
    "Lat": -8.083575,
    "Long": 112.138075,
    "Hospital": "rs"
  },
  {
    "Name": "Rumkit Tk.III Baladika Husada Jember",
    "Address": "Jl. PB Sudirman No. 49 Jember",
    "Type": "A",
    "Class": "III",
    "District": "Jember",
    "Province": "Jawa Timur",
    "Lat": -8.2603,
    "Long": 113.670411,
    "Hospital": "rs"
  },
  {
    "Name": "RS William Booth",
    "Address": "Jl. Let Jen S Parman 5,Semarang",
    "Type": "A",
    "Class": "C",
    "District": "Kota Semarang",
    "Province": "Jawa Tengah",
    "Lat": -7.29045,
    "Long": 112.736656,
    "Hospital": "rs"
  },
  {
    "Name": "RSUD Dr. Harjono S Ponorogo",
    "Address": "Jl. Ciptomangunkusumo Ponorogo",
    "Type": "A",
    "Class": "B",
    "District": "Ponorogo",
    "Province": "Jawa Timur",
    "Lat": -7.854103,
    "Long": 111.468539,
    "Hospital": "rs"
  },
  {
    "Name": "RS Darmayu",
    "Address": "Jl. Dr. Soetomo 44 Ponorogo",
    "Type": "A",
    "Class": "",
    "District": "Ponorogo",
    "Province": "Jawa Timur",
    "Lat": -7.86845,
    "Long": 111.473,
    "Hospital": "rs"
  },
  {
    "Name": "RS Aisyiah Diponegoro",
    "Address": "Jl. Diponegoro No.50 Ponorogo",
    "Type": "A",
    "Class": "",
    "District": "Ponorogo",
    "Province": "Jawa Timur",
    "Lat": -7.866358,
    "Long": 111.463847,
    "Hospital": "rs"
  },
  {
    "Name": "RS Griya Waluya",
    "Address": "Jl. Sultan Agung 68 Ponorogo",
    "Type": "A",
    "Class": "",
    "District": "Ponorogo",
    "Province": "Jawa Timur",
    "Lat": -7.872275,
    "Long": 111.461258,
    "Hospital": "rs"
  },
  {
    "Name": "RS Budi Asih Trenggalek",
    "Address": "Jl. Mayjen Sungkono Trenggalek",
    "Type": "A",
    "Class": "",
    "District": "Trenggalek",
    "Province": "Jawa Timur",
    "Lat": -8.056225,
    "Long": 111.697717,
    "Hospital": "rs"
  },
  {
    "Name": "RS Mardi Mulia",
    "Address": "Jl. Sutomo 19 Trenggalek",
    "Type": "A",
    "Class": "",
    "District": "Trenggalek",
    "Province": "Jawa Timur",
    "Lat": -8.058044,
    "Long": 111.704814,
    "Hospital": "rs"
  },
  {
    "Name": "RSUD Dr Iskak Tulungagung",
    "Address": "Jl. Dr. W Sudirohusudo, Tulungagung",
    "Type": "A",
    "Class": "B",
    "District": "Tulungagung",
    "Province": "Jawa Timur",
    "Lat": -8.060617,
    "Long": 111.907617,
    "Hospital": "rs"
  },
  {
    "Name": "RSU Islam Orpeha",
    "Address": "Jl. KHR Abdul Fatah Tulungagung",
    "Type": "A",
    "Class": "C",
    "District": "Tulungagung",
    "Province": "Jawa Timur",
    "Lat": -8.052603,
    "Long": 111.883119,
    "Hospital": "rs"
  },
  {
    "Name": "RSUD Ngudi Waluyo Wlingi",
    "Address": "Jl. Dr. Sucipto No.5 Wlingi",
    "Type": "A",
    "Class": "B",
    "District": "Blitar",
    "Province": "Jawa Timur",
    "Lat": -8.0838,
    "Long": 112.315564,
    "Hospital": "rs"
  },
  {
    "Name": "RSU Pare",
    "Address": "Jl. Pahlawan Kusuma Bangsa No.1, Pare",
    "Type": "A",
    "Class": "B",
    "District": "Kediri",
    "Province": "Jawa Timur",
    "Lat": -7.759758,
    "Long": 112.175981,
    "Hospital": "rs"
  },
  {
    "Name": "RS PTP XXI Toeloengredjo",
    "Address": "Jl. A Yani No. 25 Pare Kediri",
    "Type": "A",
    "Class": "",
    "District": "Kediri",
    "Province": "Jawa Timur",
    "Lat": -7.765064,
    "Long": 112.196872,
    "Hospital": "rs"
  },
  {
    "Name": "RS Amelia",
    "Address": "Jl. Pahlawan No.25A Pare Kediri",
    "Type": "A",
    "Class": "",
    "District": "Kediri",
    "Province": "Jawa Timur",
    "Lat": -7.761606,
    "Long": 112.180461,
    "Hospital": "rs"
  },
  {
    "Name": "RS Baptis Batu",
    "Address": "Jl. Raya Tlekung No.I, Malang",
    "Type": "A",
    "Class": "",
    "District": "Malang",
    "Province": "Jawa Timur",
    "Lat": -7.884817,
    "Long": 112.529808,
    "Hospital": "rs"
  },
  {
    "Name": "RSU Dr. Haryoto Lumajang",
    "Address": "Jl. Basuki Rahmat No.5, Lumajang",
    "Type": "A",
    "Class": "B",
    "District": "Lumajang",
    "Province": "Jawa Timur",
    "Lat": -8.122275,
    "Long": 113.227775,
    "Hospital": "rs"
  },
  {
    "Name": "RS PTP XXIV Jatiroto",
    "Address": "Jl. Sudirman Jatiroto Lumajang",
    "Type": "A",
    "Class": "",
    "District": "Lumajang",
    "Province": "Jawa Timur",
    "Lat": -8.116108,
    "Long": 113.319586,
    "Hospital": "rs"
  },
  {
    "Name": "RSU Dr. Soebandi",
    "Address": "Jl. Dr. Soebandi No.124, Jember",
    "Type": "A",
    "Class": "B",
    "District": "Jember",
    "Province": "Jawa Timur",
    "Lat": -8.156189,
    "Long": 113.715394,
    "Hospital": "rs"
  },
  {
    "Name": "RSTP Jember",
    "Address": "Jl. Nusa Indah No. 28 Jember",
    "Type": "F",
    "Class": "B",
    "District": "Jember",
    "Province": "Jawa Timur",
    "Lat": -8.160664,
    "Long": 113.700508,
    "Hospital": "rs"
  },
  {
    "Name": "RS Utama Husada",
    "Address": "Jl. Manggar No.134 Tegalsari, Ambulu Jember",
    "Type": "A",
    "Class": "C",
    "District": "Jember",
    "Province": "Jawa Timur",
    "Lat": -8.160853,
    "Long": 113.695003,
    "Hospital": "rs"
  },
  {
    "Name": "RSGM Universitas Jember",
    "Address": "Jl. Kalimantan No. 37 Jember",
    "Type": "T",
    "Class": "",
    "District": "Jember",
    "Province": "Jawa Timur",
    "Lat": -8.176375,
    "Long": 113.714136,
    "Hospital": "rs"
  },
  {
    "Name": "RSUD Kalisat Kab.Jember",
    "Address": "Jl. M.H.Thamrin No.31 Jember",
    "Type": "A",
    "Class": "D",
    "District": "Jember",
    "Province": "Jawa Timur",
    "Lat": -8.201456,
    "Long": 113.671978,
    "Hospital": "rs"
  },
  {
    "Name": "RSUD Balung",
    "Address": "Jl. Rambipuji 19, Balung Jember",
    "Type": "A",
    "Class": "C",
    "District": "Jember",
    "Province": "Jawa Timur",
    "Lat": -8.271042,
    "Long": 113.539303,
    "Hospital": "rs"
  },
  {
    "Name": "RS Islam Fatimah",
    "Address": "Jl. Jember 25 Kabat Banyuwangi",
    "Type": "A",
    "Class": "",
    "District": "Banyuwangi",
    "Province": "Jawa Timur",
    "Lat": -8.261633,
    "Long": 114.33405,
    "Hospital": "rs"
  },
  {
    "Name": "RSIA Bunda",
    "Address": "Jl. Adisucipto 9 Banyuwangi",
    "Type": "O",
    "Class": "",
    "District": "Banyuwangi",
    "Province": "Jawa Timur",
    "Lat": -8.231872,
    "Long": 114.362389,
    "Hospital": "rs"
  },
  {
    "Name": "RSK Bedah Yasmin",
    "Address": "Jl. Letkol Istiqlah Banyuwangi",
    "Type": "K",
    "Class": "",
    "District": "Banyuwangi",
    "Province": "Jawa Timur",
    "Lat": -8.225639,
    "Long": 114.370481,
    "Hospital": "rs"
  },
  {
    "Name": "RS Nahdlatul Ulama Banyuwangi",
    "Address": "Jl. Raya Mangir,Rogojampi - Banyuwangi",
    "Type": "A",
    "Class": "",
    "District": "Banyuwangi",
    "Province": "Jawa Timur",
    "Lat": -8.337369,
    "Long": 114.272564,
    "Hospital": "rs"
  },
  {
    "Name": "RSUD Dr. H.Koesnadi",
    "Address": "Jl. Piere Tendean Bondowoso",
    "Type": "A",
    "Class": "B",
    "District": "Bondowoso",
    "Province": "Jawa Timur",
    "Lat": -8.215011,
    "Long": 114.377456,
    "Hospital": "rs"
  },
  {
    "Name": "RS Elizabeth PTP Nusantara XI",
    "Address": "Jl. WR Supratman 2A Situbondo",
    "Type": "A",
    "Class": "",
    "District": "Situbondo",
    "Province": "Jawa Timur",
    "Lat": -7.704206,
    "Long": 114.015383,
    "Hospital": "rs"
  },
  {
    "Name": "RSU Waluyo Jati Kraksaan",
    "Address": "Jl. Dr Sutomo No. 1 Kraksaan",
    "Type": "A",
    "Class": "C",
    "District": "Probolinggo",
    "Province": "Jawa Timur",
    "Lat": -7.761831,
    "Long": 113.437403,
    "Hospital": "rs"
  },
  {
    "Name": "RS Graha Sehat",
    "Address": "Jl. Raya Panglima Sudirman No.2",
    "Type": "A",
    "Class": "",
    "District": "Probolinggo",
    "Province": "Jawa Timur",
    "Lat": -7.755953,
    "Long": 113.439517,
    "Hospital": "rs"
  },
  {
    "Name": "RS Islam Masyitoh Bangil",
    "Address": "Jl. A.Yani No.6 Bangil Jatim",
    "Type": "A",
    "Class": "",
    "District": "Pasuruan",
    "Province": "Jawa Timur",
    "Lat": -7.604736,
    "Long": 112.818731,
    "Hospital": "rs"
  },
  {
    "Name": "RSUD Bangil",
    "Address": "Jl. Raci - Bangil",
    "Type": "A",
    "Class": "C",
    "District": "Pasuruan",
    "Province": "Jawa Timur",
    "Lat": -7.608378,
    "Long": 112.830525,
    "Hospital": "rs"
  },
  {
    "Name": "RSIA Panca Dharma",
    "Address": "Jl. Raya 14A Pandaan Sukorejo",
    "Type": "O",
    "Class": "",
    "District": "Pasuruan",
    "Province": "Jawa Timur",
    "Lat": -7.677544,
    "Long": 112.645936,
    "Hospital": "rs"
  },
  {
    "Name": "RS Panca Dharma",
    "Address": "Jl. Raya 14 Sukorejo Pasuruan",
    "Type": "A",
    "Class": "",
    "District": "Pasuruan",
    "Province": "Jawa Timur",
    "Lat": -7.677544,
    "Long": 112.645936,
    "Hospital": "rs"
  },
  {
    "Name": "RSUD Sidoarjo",
    "Address": "Jl. Mojopahit No.667 Sidoarjo",
    "Type": "A",
    "Class": "B",
    "District": "Sidoarjo",
    "Province": "Jawa Timur",
    "Lat": -7.465256,
    "Long": 112.715656,
    "Hospital": "rs"
  },
  {
    "Name": "RSU Siti Khodijah",
    "Address": "Jl. Pahlawan Sepanjang Sidoarjo",
    "Type": "A",
    "Class": "",
    "District": "Sidoarjo",
    "Province": "Jawa Timur",
    "Lat": -7.449119,
    "Long": 112.707406,
    "Hospital": "rs"
  },
  {
    "Name": "RS Pusdik Polri Porong",
    "Address": "Pusdik Sabhara Porong",
    "Type": "A",
    "Class": 4,
    "District": "Sidoarjo",
    "Province": "Jawa Timur",
    "Lat": -7.538544,
    "Long": 112.700381,
    "Hospital": "rs"
  },
  {
    "Name": "RS Delta Surya",
    "Address": "Jl. Pahlawan Sidoarjo",
    "Type": "A",
    "Class": "",
    "District": "Sidoarjo",
    "Province": "Jawa Timur",
    "Lat": -7.448194,
    "Long": 112.702169,
    "Hospital": "rs"
  },
  {
    "Name": "RS Islam Siti Hajar",
    "Address": "Jl. Raden Patah No. 70 Sidoarjo",
    "Type": "A",
    "Class": "",
    "District": "Sidoarjo",
    "Province": "Jawa Timur",
    "Lat": -7.457442,
    "Long": 112.722081,
    "Hospital": "rs"
  },
  {
    "Name": "RSAB Jasem",
    "Address": "Jl. Samanhudi No.85A Sidoarjo",
    "Type": "O",
    "Class": "",
    "District": "Sidoarjo",
    "Province": "Jawa Timur",
    "Lat": -7.459322,
    "Long": 112.721708,
    "Hospital": "rs"
  },
  {
    "Name": "RS Kusta Sumberglagah",
    "Address": "Sumberglagah Pacet Mojokerto",
    "Type": "G",
    "Class": "C",
    "District": "Mojokerto",
    "Province": "Jawa Timur",
    "Lat": -7.661517,
    "Long": 112.537225,
    "Hospital": "rs"
  },
  {
    "Name": "RSU Prof Dr Soekandar",
    "Address": "Jl. Hayam Wuruk 25 Mojosari",
    "Type": "A",
    "Class": "B",
    "District": "Mojokerto",
    "Province": "Jawa Timur",
    "Lat": -7.462764,
    "Long": 112.435042,
    "Hospital": "rs"
  },
  {
    "Name": "RS Emma",
    "Address": "Jl. Raya Ijen No.67 Mojokerto",
    "Type": "A",
    "Class": "",
    "District": "Mojokerto",
    "Province": "Jawa Timur",
    "Lat": -7.472875,
    "Long": 112.431003,
    "Hospital": "rs"
  },
  {
    "Name": "RSAB Muslimat",
    "Address": "Jl. U Sumohardjo 32-34 Jombang",
    "Type": "O",
    "Class": "D",
    "District": "Jombang",
    "Province": "Jawa Timur",
    "Lat": -7.560772,
    "Long": 112.228969,
    "Hospital": "rs"
  },
  {
    "Name": "RS Islam Jombang",
    "Address": "Jl. Brig. Kretarto 22 A Jombang",
    "Type": "A",
    "Class": "",
    "District": "Jombang",
    "Province": "Jawa Timur",
    "Lat": -7.530833,
    "Long": 112.2375,
    "Hospital": "rs"
  },
  {
    "Name": "RSUD Nganjuk",
    "Address": "Jl. Dr. Sutomo 62, Nganjuk",
    "Type": "A",
    "Class": "B",
    "District": "Nganjuk",
    "Province": "Jawa Timur",
    "Lat": -7.661178,
    "Long": 111.872347,
    "Hospital": "rs"
  },
  {
    "Name": "RSU Kertosono",
    "Address": "Jl. Supriadi No. 29 Kertosono.",
    "Type": "A",
    "Class": "C",
    "District": "Nganjuk",
    "Province": "Jawa Timur",
    "Lat": -7.592636,
    "Long": 112.125847,
    "Hospital": "rs"
  },
  {
    "Name": "RS Satiti",
    "Address": "Jl. Lonsep No. 3 Kertosono.",
    "Type": "A",
    "Class": "",
    "District": "Nganjuk",
    "Province": "Jawa Timur",
    "Lat": -7.602122,
    "Long": 112.089656,
    "Hospital": "rs"
  },
  {
    "Name": "RSTP Dungus",
    "Address": "Jl. Raya Dungus - Wungu, Madiun",
    "Type": "F",
    "Class": "C",
    "District": "Madiun",
    "Province": "Jawa Timur",
    "Lat": -7.665542,
    "Long": 111.580989,
    "Hospital": "rs"
  },
  {
    "Name": "RSUD Panti Waluyo",
    "Address": "Jl. A Yani Km 2 Caruban Madiun",
    "Type": "A",
    "Class": "C",
    "District": "Madiun",
    "Province": "Jawa Timur",
    "Lat": -7.538814,
    "Long": 111.655694,
    "Hospital": "rs"
  },
  {
    "Name": "RSU Dr. Saydiman Magetan",
    "Address": "Jl. Pahlawan No.2 Magetan",
    "Type": "A",
    "Class": "C",
    "District": "Magetan",
    "Province": "Jawa Timur",
    "Lat": -7.652836,
    "Long": 111.334919,
    "Hospital": "rs"
  },
  {
    "Name": "RSU Dr. Soeroto Ngawi",
    "Address": "Jl. Dr Wahidin 27, Ngawi",
    "Type": "A",
    "Class": "C",
    "District": "Ngawi",
    "Province": "Jawa Timur",
    "Lat": -7.392681,
    "Long": 111.445,
    "Hospital": "rs"
  },
  {
    "Name": "RSAB Aisyiah Bojonegoro",
    "Address": "Jl. Hasyim Asyari 17 Bojonegoro",
    "Type": "O",
    "Class": "",
    "District": "Bojonegoro",
    "Province": "Jawa Timur",
    "Lat": -7.156667,
    "Long": 111.872433,
    "Hospital": "rs"
  },
  {
    "Name": "RS Muhamadiyah Sumberejo",
    "Address": "Jl. Raya Sumberrejo Bojonegoro",
    "Type": "A",
    "Class": "",
    "District": "Bojonegoro",
    "Province": "Jawa Timur",
    "Lat": -7.176078,
    "Long": 112.004608,
    "Hospital": "rs"
  },
  {
    "Name": "RSUD Padangan",
    "Address": "Jl. Dr. Soetomo No.02 Padangan,Bojonegoro",
    "Type": "A",
    "Class": "D",
    "District": "Bojonegoro",
    "Province": "Jawa Timur",
    "Lat": -7.160639,
    "Long": 111.633514,
    "Hospital": "rs"
  },
  {
    "Name": "RS Kusta Nganget",
    "Address": "Pos Jojogan Bojonegoro Tuban",
    "Type": "G",
    "Class": "",
    "District": "Tuban",
    "Province": "Jawa Timur",
    "Lat": -6.901672,
    "Long": 112.050367,
    "Hospital": "rs"
  },
  {
    "Name": "RS Medika Mulia Tuban",
    "Address": "Jl. Mojopahit 699 Tuban",
    "Type": "A",
    "Class": "",
    "District": "Tuban",
    "Province": "Jawa Timur",
    "Lat": -6.916997,
    "Long": 112.049222,
    "Hospital": "rs"
  },
  {
    "Name": "RSAB Muhammadiyah",
    "Address": "Jl. Diponegoro No.1 Tuban",
    "Type": "O",
    "Class": "",
    "District": "Tuban",
    "Province": "Jawa Timur",
    "Lat": -6.898561,
    "Long": 112.044503,
    "Hospital": "rs"
  },
  {
    "Name": "RS Islam Nashrul Ummah",
    "Address": "Jl. Merpati No.62 Lamongan",
    "Type": "A",
    "Class": "",
    "District": "Lamongan",
    "Province": "Jawa Timur",
    "Lat": -7.116342,
    "Long": 112.419656,
    "Hospital": "rs"
  },
  {
    "Name": "RS Muhammadiyah Lamongan",
    "Address": "Jl. Jaksa Agung Suprapto Lamongan",
    "Type": "A",
    "Class": "",
    "District": "Lamongan",
    "Province": "Jawa Timur",
    "Lat": -7.106139,
    "Long": 112.387883,
    "Hospital": "rs"
  },
  {
    "Name": "RSIA Nyai Ageng Pinatih",
    "Address": "Jl. KH Abd Karim 76-78 Gresik",
    "Type": "O",
    "Class": "",
    "District": "Gresik",
    "Province": "Jawa Timur",
    "Lat": -7.156886,
    "Long": 112.652131,
    "Hospital": "rs"
  },
  {
    "Name": "RS Jiwa Aditama",
    "Address": "Jl. Raya Bunder Gresik",
    "Type": "B",
    "Class": "",
    "District": "Gresik",
    "Province": "Jawa Timur",
    "Lat": -7.175744,
    "Long": 112.582814,
    "Hospital": "rs"
  },
  {
    "Name": "RS Petrokimia Gresik",
    "Address": "Jl. Jen Ahmad Yani 69 Gresik",
    "Type": "A",
    "Class": "",
    "District": "Gresik",
    "Province": "Jawa Timur",
    "Lat": -7.156844,
    "Long": 112.640033,
    "Hospital": "rs"
  },
  {
    "Name": "RSUD Syarifah Ambarni Rato Ebuh",
    "Address": "Jl. Pemuda Kaffa No. 9 Bangkalan",
    "Type": "A",
    "Class": "B",
    "District": "Bangkalan",
    "Province": "Jawa Timur",
    "Lat": -7.029261,
    "Long": 112.759269,
    "Hospital": "rs"
  },
  {
    "Name": "RS AL Batuporon",
    "Address": "Jl. Mawar Madura Kab Bangkalan",
    "Type": "A",
    "Class": 4,
    "District": "Bangkalan",
    "Province": "Jawa Timur",
    "Lat": -7.025739,
    "Long": 112.751478,
    "Hospital": "rs"
  },
  {
    "Name": "RSUD Pamekasan",
    "Address": "Jl. Raya Panglegur No.4, Pamekasan",
    "Type": "A",
    "Class": "B",
    "District": "Pamekasan",
    "Province": "Jawa Timur",
    "Lat": -7.183369,
    "Long": 113.479278,
    "Hospital": "rs"
  },
  {
    "Name": "RSB & Peny.Dalam Larasati",
    "Address": "Jl. Mandilaras No.74 Pamekasan",
    "Type": "C",
    "Class": "",
    "District": "Pamekasan",
    "Province": "Jawa Timur",
    "Lat": -7.155106,
    "Long": 113.481844,
    "Hospital": "rs"
  },
  {
    "Name": "RSU Muh Anwar Sumenep",
    "Address": "Jl. Dr Cipto No. 42 Sumenep",
    "Type": "A",
    "Class": "C",
    "District": "Sumenep",
    "Province": "Jawa Timur",
    "Lat": -7.015333,
    "Long": 113.863728,
    "Hospital": "rs"
  },
  {
    "Name": "RSU Gambiran",
    "Address": "Jl. KH Wahid Hasyim 64 Kediri",
    "Type": "A",
    "Class": "B",
    "District": "Kota Kediri",
    "Province": "Jawa Timur",
    "Lat": -7.81595,
    "Long": 112.005,
    "Hospital": "rs"
  },
  {
    "Name": "Rumkit Tk.IV Kediri",
    "Address": "Jl. Mayjen SungkoNo. 44, Kediri",
    "Type": "A",
    "Class": 4,
    "District": "Kota Kediri",
    "Province": "Jawa Timur",
    "Lat": -7.451931,
    "Long": 112.447556,
    "Hospital": "rs"
  },
  {
    "Name": "RS Bhayangkara Kediri",
    "Address": "Jl. Kombes Pol Duryat 17 Kediri",
    "Type": "A",
    "Class": 3,
    "District": "Kota Kediri",
    "Province": "Jawa Timur",
    "Lat": -7.812461,
    "Long": 112.017814,
    "Hospital": "rs"
  },
  {
    "Name": "RS Baptis Kediri",
    "Address": "Jl. Mauni 1-7 Kediri",
    "Type": "A",
    "Class": "",
    "District": "Kota Kediri",
    "Province": "Jawa Timur",
    "Lat": -7.827011,
    "Long": 112.032,
    "Hospital": "rs"
  },
  {
    "Name": "RS Kusta Kediri",
    "Address": "Jl. Veteran No. 48, Kediri",
    "Type": "G",
    "Class": "B",
    "District": "Kota Kediri",
    "Province": "Jawa Timur",
    "Lat": -7.811458,
    "Long": 111.997175,
    "Hospital": "rs"
  },
  {
    "Name": "RSB Nirmala Kediri",
    "Address": "Jl. Jaksa Agung Suprapto No.5 Kediri",
    "Type": "C",
    "Class": "",
    "District": "Kota Kediri",
    "Province": "Jawa Timur",
    "Lat": -7.779842,
    "Long": 111.999289,
    "Hospital": "rs"
  },
  {
    "Name": "RSIA Muhammadiyah Kediri",
    "Address": "Jl. Achmad Dahlan No.39,Kediri",
    "Type": "O",
    "Class": "",
    "District": "Kota Kediri",
    "Province": "Jawa Timur",
    "Lat": -7.802172,
    "Long": 112.002208,
    "Hospital": "rs"
  },
  {
    "Name": "RS Islam Al-Arafah",
    "Address": "Jl. Raung 190,Kediri",
    "Type": "A",
    "Class": "",
    "District": "Kota Kediri",
    "Province": "Jawa Timur",
    "Lat": -7.831653,
    "Long": 111.995344,
    "Hospital": "rs"
  },
  {
    "Name": "RSIA Aminah",
    "Address": "Jl. Veteran No.12,Blitar",
    "Type": "O",
    "Class": "",
    "District": "Kota Blitar",
    "Province": "Jawa Timur",
    "Lat": -8.100189,
    "Long": 112.168,
    "Hospital": "rs"
  },
  {
    "Name": "Rumkit Tk.II Dr. Soepraoen",
    "Address": "Jl. Sodanco Supriyadi No.22,Malang",
    "Type": "A",
    "Class": 2,
    "District": "Kota Malang",
    "Province": "Jawa Timur",
    "Lat": -8.095014,
    "Long": 112.174803,
    "Hospital": "rs"
  },
  {
    "Name": "RS Panti Nirmala",
    "Address": "Jl. Kebalen Wetan N0.2-8 Malang",
    "Type": "A",
    "Class": "",
    "District": "Kota Malang",
    "Province": "Jawa Timur",
    "Lat": -7.991394,
    "Long": 112.637431,
    "Hospital": "rs"
  },
  {
    "Name": "RS PTPN XI Lavalete",
    "Address": "Jl. WR Supratman 10 Malang",
    "Type": "A",
    "Class": "",
    "District": "Kota Malang",
    "Province": "Jawa Timur",
    "Lat": -7.798761,
    "Long": 112.636058,
    "Hospital": "rs"
  },
  {
    "Name": "RSU Marsudi Waluyo",
    "Address": "Jl. Raya Mondoroko Km. 9 Singosari Malang",
    "Type": "A",
    "Class": "C",
    "District": "Kota Malang",
    "Province": "Jawa Timur",
    "Lat": -7.905725,
    "Long": 112.655511,
    "Hospital": "rs"
  },
  {
    "Name": "RS LPK Malang",
    "Address": "Jl. Asahan No.7 Malang",
    "Type": "A",
    "Class": "",
    "District": "Kota Malang",
    "Province": "Jawa Timur",
    "Lat": -7.959889,
    "Long": 112.637519,
    "Hospital": "rs"
  },
  {
    "Name": "RS Lanuma Abdul Saleh",
    "Address": "Jl. Dr. M. Munir No.18, Malang",
    "Type": "A",
    "Class": 4,
    "District": "Kota Malang",
    "Province": "Jawa Timur",
    "Lat": -7.952064,
    "Long": 112.675889,
    "Hospital": "rs"
  },
  {
    "Name": "RS Islam Gondang Legi",
    "Address": "Jl. Hayam Wuruk 66 Gondang Legi Malang",
    "Type": "A",
    "Class": "",
    "District": "Kota Malang",
    "Province": "Jawa Timur",
    "Lat": -8.170653,
    "Long": 112.639958,
    "Hospital": "rs"
  },
  {
    "Name": "RS Islam Aisyiyah Malang",
    "Address": "Jl. Sulawesi No. 6 Malang",
    "Type": "A",
    "Class": "",
    "District": "Kota Malang",
    "Province": "Jawa Timur",
    "Lat": -7.988733,
    "Long": 112.625453,
    "Hospital": "rs"
  },
  {
    "Name": "RS Islam Malang",
    "Address": "Jl. M. T. Haryono No. 139 Malang",
    "Type": "A",
    "Class": "C",
    "District": "Kota Malang",
    "Province": "Jawa Timur",
    "Lat": -7.940269,
    "Long": 112.608694,
    "Hospital": "rs"
  },
  {
    "Name": "RS Sumber Sentosa",
    "Address": "Jl. Kebonsari No. 221 Malang",
    "Type": "A",
    "Class": "",
    "District": "Kota Malang",
    "Province": "Jawa Timur",
    "Lat": -8.003153,
    "Long": 112.761892,
    "Hospital": "rs"
  },
  {
    "Name": "RSU Dr. Moh Saleh Probolinggo",
    "Address": "Jl. Panjaitan No.65 Probolinggo",
    "Type": "A",
    "Class": "B",
    "District": "Kota Probolinggo",
    "Province": "Jawa Timur",
    "Lat": -7.74895,
    "Long": 113.210325,
    "Hospital": "rs"
  },
  {
    "Name": "RS Dharma Husada",
    "Address": "Jl. Sukarno Hatta Probolinggo",
    "Type": "A",
    "Class": "",
    "District": "Kota Probolinggo",
    "Province": "Jawa Timur",
    "Lat": -7.753839,
    "Long": 113.198042,
    "Hospital": "rs"
  },
  {
    "Name": "RS Wonolangan",
    "Address": "Jl. Raya Dringun Probolinggo",
    "Type": "A",
    "Class": "",
    "District": "Kota Probolinggo",
    "Province": "Jawa Timur",
    "Lat": -7.761522,
    "Long": 113.234208,
    "Hospital": "rs"
  },
  {
    "Name": "RSUD Tongas",
    "Address": "Jl. Raya Tongas No. 229,Probolinggo",
    "Type": "A",
    "Class": "D",
    "District": "Kota Probolinggo",
    "Province": "Jawa Timur",
    "Lat": -7.735419,
    "Long": 113.119506,
    "Hospital": "rs"
  },
  {
    "Name": "RSU Dr. R.Soedarsono Pasuruan",
    "Address": "Jl. Dr Wahidin Sudirohusodo No. 1-4 Pasuruan",
    "Type": "A",
    "Class": "C",
    "District": "Kota Pasuruan",
    "Province": "Jawa Timur",
    "Lat": -7.664211,
    "Long": 112.899,
    "Hospital": "rs"
  },
  {
    "Name": "RSU Dr. Wahidin S Husodo",
    "Address": "Jl. Gajah Mada 100 Mojokerto",
    "Type": "A",
    "Class": "C",
    "District": "Mojokerto",
    "Province": "Jawa Timur",
    "Lat": -7.465089,
    "Long": 112.437092,
    "Hospital": "rs"
  },
  {
    "Name": "Rumkitban Mojokerto",
    "Address": "Jl. R Wijaya 58 Mojokerto",
    "Type": "A",
    "Class": 4,
    "District": "Mojokerto",
    "Province": "Jawa Timur",
    "Lat": -7.481619,
    "Long": 112.438081,
    "Hospital": "rs"
  },
  {
    "Name": "RS PTP XXI_XXII Gatoel",
    "Address": "Jl. R Wijaya No.56 Mojokerto",
    "Type": "A",
    "Class": "",
    "District": "Mojokerto",
    "Province": "Jawa Timur",
    "Lat": -7.480597,
    "Long": 112.433325,
    "Hospital": "rs"
  },
  {
    "Name": "RS Reksa Waluya",
    "Address": "Jl. Mojopahit 422, Mojokerto",
    "Type": "A",
    "Class": "",
    "District": "Mojokerto",
    "Province": "Jawa Timur",
    "Lat": -7.477733,
    "Long": 112.43175,
    "Hospital": "rs"
  },
  {
    "Name": "RS Hasanah Muhammadiyah",
    "Address": "Jl. HOS Cokroaminoto No. 26-28 Mojokerto",
    "Type": "A",
    "Class": "",
    "District": "Mojokerto",
    "Province": "Jawa Timur",
    "Lat": -7.468447,
    "Long": 112.435886,
    "Hospital": "rs"
  },
  {
    "Name": "RS Islam Sakinah",
    "Address": "Jl. RA Basuni No.12 Mojokerto",
    "Type": "A",
    "Class": "C",
    "District": "Mojokerto",
    "Province": "Jawa Timur",
    "Lat": -7.496261,
    "Long": 112.424,
    "Hospital": "rs"
  },
  {
    "Name": "RSUD RA.Basoeni",
    "Address": "Jl. Raya Gedeg No.17,Kab.Mojokerto",
    "Type": "A",
    "Class": "C",
    "District": "Mojokerto",
    "Province": "Jawa Timur",
    "Lat": -7.455994,
    "Long": 112.409794,
    "Hospital": "rs"
  },
  {
    "Name": "RSU Dr. Soedono Madiun",
    "Address": "Jl. Dr. Soetomo 59, Madiun",
    "Type": "A",
    "Class": "B",
    "District": "Kota Madiun",
    "Province": "Jawa Timur",
    "Lat": -7.626433,
    "Long": 111.524125,
    "Hospital": "rs"
  },
  {
    "Name": "RS Santa Clara",
    "Address": "Jl. Biliton No. 15 Madiun",
    "Type": "A",
    "Class": "",
    "District": "Kota Madiun",
    "Province": "Jawa Timur",
    "Lat": -7.621417,
    "Long": 111.523992,
    "Hospital": "rs"
  },
  {
    "Name": "RS Rumkit Tk.IV Madiun",
    "Address": "Jl. Pahlawan No. 79 Madiun",
    "Type": "A",
    "Class": 4,
    "District": "Kota Madiun",
    "Province": "Jawa Timur",
    "Lat": -7.623031,
    "Long": 111.522011,
    "Hospital": "rs"
  },
  {
    "Name": "RS Lanuma Iswahyudi",
    "Address": "Lanud Iswahyudi Magetan",
    "Type": "A",
    "Class": 3,
    "District": "Kota Madiun",
    "Province": "Jawa Timur",
    "Lat": -7.611972,
    "Long": 111.43925,
    "Hospital": "rs"
  },
  {
    "Name": "RS Islam Siti Aisyah",
    "Address": "Jl. Mayjen SungkoNo. 38 - 40 Madiun",
    "Type": "A",
    "Class": "",
    "District": "Kota Madiun",
    "Province": "Jawa Timur",
    "Lat": -7.632469,
    "Long": 111.512258,
    "Hospital": "rs"
  },
  {
    "Name": "RSUD Kota Madiun",
    "Address": "Jl. Campursari No.12,Madiun",
    "Type": "A",
    "Class": "C",
    "District": "Kota Madiun",
    "Province": "Jawa Timur",
    "Lat": -7.626594,
    "Long": 111.522278,
    "Hospital": "rs"
  },
  {
    "Name": "RSU Dr. Soetomo",
    "Address": "Jl. Prof Dr. Moestopo Surabaya",
    "Type": "A",
    "Class": "A",
    "District": "Surabaya",
    "Province": "Jawa Timur",
    "Lat": -7.266681,
    "Long": 112.758222,
    "Hospital": "rs"
  },
  {
    "Name": "RS Al Dr Ramelan",
    "Address": "Jl. Gadung No. 1 Surabaya",
    "Type": "A",
    "Class": 1,
    "District": "Surabaya",
    "Province": "Jawa Timur",
    "Lat": -7.308367,
    "Long": 112.737981,
    "Hospital": "rs"
  },
  {
    "Name": "RS William Booth",
    "Address": "Jl. Diponegoro 34,Surabaya",
    "Type": "A",
    "Class": "",
    "District": "Surabaya",
    "Province": "Jawa Timur",
    "Lat": -7.290969,
    "Long": 112.737,
    "Hospital": "rs"
  },
  {
    "Name": "RS Adi Husada Pusat",
    "Address": "Jl. Undaan Wetan 40-44,Surabaya",
    "Type": "A",
    "Class": "",
    "District": "Surabaya",
    "Province": "Jawa Timur",
    "Lat": -7.251831,
    "Long": 112.746,
    "Hospital": "rs"
  },
  {
    "Name": "RS Griya Husada Surabaya",
    "Address": "Jl. Dukuh Pakis No.2,Surabaya",
    "Type": "A",
    "Class": "",
    "District": "Surabaya",
    "Province": "Jawa Timur",
    "Lat": -7.293461,
    "Long": 112.708322,
    "Hospital": "rs"
  },
  {
    "Name": "RS Al Tanjung Perak",
    "Address": "Jl. Laksda M.Nazir No.56,Surabaya",
    "Type": "A",
    "Class": 3,
    "District": "Surabaya",
    "Province": "Jawa Timur",
    "Lat": -7.212456,
    "Long": 112.724331,
    "Hospital": "rs"
  },
  {
    "Name": "RS Islam Surabaya",
    "Address": "Jl. Jend A Yani 2-4 Surabaya",
    "Type": "A",
    "Class": "C",
    "District": "Surabaya",
    "Province": "Jawa Timur",
    "Lat": -7.323511,
    "Long": 112.740706,
    "Hospital": "rs"
  },
  {
    "Name": "Rumkit Tk III Brawijaya,Sby",
    "Address": "Jl. Kesatrian No.17 Surabaya",
    "Type": "A",
    "Class": 3,
    "District": "Surabaya",
    "Province": "Jawa Timur",
    "Lat": -7.29785,
    "Long": 112.725183,
    "Hospital": "rs"
  },
  {
    "Name": "RS AL Pal Surabaya",
    "Address": "Jl. Taruna 66-68 Ujung Surabaya",
    "Type": "A",
    "Class": 4,
    "District": "Surabaya",
    "Province": "Jawa Timur",
    "Lat": -7.207358,
    "Long": 112.740486,
    "Hospital": "rs"
  },
  {
    "Name": "RS AL Gunungsari",
    "Address": "Jl. Golf No. 1 Surabaya",
    "Type": "A",
    "Class": 3,
    "District": "Surabaya",
    "Province": "Jawa Timur",
    "Lat": -7.305853,
    "Long": 112.712728,
    "Hospital": "rs"
  },
  {
    "Name": "RS AL Juanda",
    "Address": "Jl. Bachtiar Yahya No.1,Juanda,Surabaya",
    "Type": "A",
    "Class": 4,
    "District": "Surabaya",
    "Province": "Jawa Timur",
    "Lat": -7.276589,
    "Long": 112.737281,
    "Hospital": "rs"
  },
  {
    "Name": "RS TNI AU Soemitro",
    "Address": "Jl. Serayu 17 Surabaya",
    "Type": "A",
    "Class": 4,
    "District": "Surabaya",
    "Province": "Jawa Timur",
    "Lat": -7.291472,
    "Long": 112.740767,
    "Hospital": "rs"
  },
  {
    "Name": "RS AL Kodikal",
    "Address": "Jl. Morokrembangan Surabaya",
    "Type": "A",
    "Class": 4,
    "District": "Surabaya",
    "Province": "Jawa Timur",
    "Lat": -7.305697,
    "Long": 112.741489,
    "Hospital": "rs"
  },
  {
    "Name": "RS Jiwa Menur",
    "Address": "Jl. Menur 120 Surabaya",
    "Type": "B",
    "Class": "A",
    "District": "Surabaya",
    "Province": "Jawa Timur",
    "Lat": -7.28675,
    "Long": 112.762,
    "Hospital": "rs"
  },
  {
    "Name": "RSIA I.B.I. Surabaya",
    "Address": "Jl. Dupak 15A Surabaya",
    "Type": "O",
    "Class": "",
    "District": "Surabaya",
    "Province": "Jawa Timur",
    "Lat": -7.245861,
    "Long": 112.726,
    "Hospital": "rs"
  },
  {
    "Name": "RSIA Siti Aisyiah",
    "Address": "Jl. Pacar Keling No.15A Surabaya",
    "Type": "O",
    "Class": "C",
    "District": "Surabaya",
    "Province": "Jawa Timur",
    "Lat": -7.259139,
    "Long": 112.757,
    "Hospital": "rs"
  },
  {
    "Name": "RSB Adi Guna",
    "Address": "Jl. Alun-alun Rangkah 1-3 Surabaya",
    "Type": "C",
    "Class": "",
    "District": "Surabaya",
    "Province": "Jawa Timur",
    "Lat": -7.249481,
    "Long": 112.765,
    "Hospital": "rs"
  },
  {
    "Name": "RS Husada Utama",
    "Address": "Jl. Prof Dr Moestopo 31-33-35 Surabaya",
    "Type": "A",
    "Class": "",
    "District": "Surabaya",
    "Province": "Jawa Timur",
    "Lat": -7.265533,
    "Long": 112.756314,
    "Hospital": "rs"
  },
  {
    "Name": "RSUD Dr. Mohamad Soewandhie",
    "Address": "Jl. Tambakrejo 45-47 Surabaya",
    "Type": "A",
    "Class": "B",
    "District": "Surabaya",
    "Province": "Jawa Timur",
    "Lat": -7.246131,
    "Long": 112.758,
    "Hospital": "rs"
  },
  {
    "Name": "RS Mitra Keluarga Surabaya",
    "Address": "Jl. Satelit Indah II Surabaya",
    "Type": "A",
    "Class": "",
    "District": "Surabaya",
    "Province": "Jawa Timur",
    "Lat": -7.266869,
    "Long": 112.691,
    "Hospital": "rs"
  },
  {
    "Name": "RSB Pura Raharja",
    "Address": "Jl. Puncang Adi No.12 Surabaya",
    "Type": "C",
    "Class": "",
    "District": "Surabaya",
    "Province": "Jawa Timur",
    "Lat": -7.282781,
    "Long": 112.752,
    "Hospital": "rs"
  },
  {
    "Name": "RS Gotong Royong",
    "Address": "Jl. Medokan Semampir Indah Sby",
    "Type": "A",
    "Class": "",
    "District": "Surabaya",
    "Province": "Jawa Timur",
    "Lat": -7.307619,
    "Long": 112.787,
    "Hospital": "rs"
  },
  {
    "Name": "RSK Bedah Bhakti Rahayu",
    "Address": "Jl. Ketintang Madya I/16 Surabaya",
    "Type": "K",
    "Class": "",
    "District": "Surabaya",
    "Province": "Jawa Timur",
    "Lat": -7.320594,
    "Long": 112.721794,
    "Hospital": "rs"
  },
  {
    "Name": "RSGM FKG Univ.Erlangga",
    "Address": "Jl. Prof Dr Moestopo 47 Sby",
    "Type": "T",
    "Class": "",
    "District": "Surabaya",
    "Province": "Jawa Timur",
    "Lat": -7.264681,
    "Long": 112.757,
    "Hospital": "rs"
  },
  {
    "Name": "RSGM Hang Tuah Surabaya",
    "Address": "FKG Hang Tuah Surabaya",
    "Type": "T",
    "Class": "",
    "District": "Surabaya",
    "Province": "Jawa Timur",
    "Lat": -7.290911,
    "Long": 112.792803,
    "Hospital": "rs"
  },
  {
    "Name": "RS Islam Darus Syifa",
    "Address": "Jl. Raya Benowo No.5,Surabaya",
    "Type": "A",
    "Class": "C",
    "District": "Surabaya",
    "Province": "Jawa Timur",
    "Lat": -7.235381,
    "Long": 112.613,
    "Hospital": "rs"
  },
  {
    "Name": "RS Bhayangkara H.S.Samsoeri Mertojoso",
    "Address": "Jl. Achmad Yani No.16,Surabaya",
    "Type": "A",
    "Class": 4,
    "District": "Surabaya",
    "Province": "Jawa Timur",
    "Lat": -7.340028,
    "Long": 112.700261,
    "Hospital": "rs"
  },
  {
    "Name": "RS Jiwa Dr. Radjiman Wediodiningrat",
    "Address": "Jl. Jen. A.Yani Lawang",
    "Type": "RS Khusus",
    "Class": "A",
    "District": "Malang",
    "Province": "Jawa Timur",
    "Lat": -7.839828,
    "Long": 112.676147,
    "Hospital": "rs"
  },
  {
    "Name": "RSUD Dr Soegiri Lamongan",
    "Address": "Jl. Kusumabangsa 7 Lamongan",
    "Type": "A",
    "Class": "B",
    "District": "Lamongan",
    "Province": "Jawa Timur",
    "Lat": -7.114131,
    "Long": 112.411,
    "Hospital": "rs"
  },
  {
    "Name": "RSU Dr. Saiful Anwar",
    "Address": "Jl. Jaksa Agung Suprapto No.2 Malang",
    "Type": "A",
    "Class": "A",
    "District": "Kota Malang",
    "Province": "Jawa Timur",
    "Lat": -7.964533,
    "Long": 112.631711,
    "Hospital": "rs"
  },
  {
    "Name": "RS Katholik Surabaya",
    "Address": "Jl. Diponegoro 51,Surabaya",
    "Type": "A",
    "Class": "",
    "District": "Kota Surabaya",
    "Province": "Jawa Timur",
    "Lat": -7.291169,
    "Long": 112.736,
    "Hospital": "rs"
  }
]